{
    "type": "FeatureCollection", 
    "features": [
        {
            "geometry": {
                "type": "point", 
                "coordinates": [
                    32.0676064, 
                    34.7741299
                ]
            }, 
            "type": "Feature", 
            "properties": {
                "Address": "Balfour 14, Tel Aviv, Israel"
            }
        }, 
        {
            "geometry": {
                "type": "point", 
                "coordinates": [
                    32.0548879, 
                    34.792816
                ]
            }, 
            "type": "Feature", 
            "properties": {
                "Address": "Davidka 18, Tel Aviv, Israel"
            }
        }, 
        {
            "geometry": {
                "type": "point", 
                "coordinates": [
                    32.0720528, 
                    34.7736066
                ]
            }, 
            "type": "Feature", 
            "properties": {
                "Address": "King George 33, Tel Aviv, Israel"
            }
        }, 
        {
            "geometry": {
                "type": "point", 
                "coordinates": [
                    32.0568502, 
                    34.7815735
                ]
            }, 
            "type": "Feature", 
            "properties": {
                "Address": "Rishon LeTsiyon 3, Tel Aviv, Israel"
            }
        }, 
        {
            "geometry": {
                "type": "point", 
                "coordinates": [
                    32.0427402, 
                    34.7742247
                ]
            }, 
            "type": "Feature", 
            "properties": {
                "Address": "HaKeshet 8, Tel Aviv, Israel"
            }
        }, 
        {
            "geometry": {
                "type": "point", 
                "coordinates": [
                    32.0451887, 
                    34.8088532
                ]
            }, 
            "type": "Feature", 
            "properties": {
                "Address": "Derech Haim Barlev 195, Tel Aviv, Israel"
            }
        }, 
        {
            "geometry": {
                "type": "point", 
                "coordinates": [
                    32.0686339, 
                    34.7971783
                ]
            }, 
            "type": "Feature", 
            "properties": {
                "Address": "Shulman 3, Tel Aviv, Israel"
            }
        }, 
        {
            "geometry": {
                "type": "point", 
                "coordinates": [
                    32.046408, 
                    34.7907562
                ]
            }, 
            "type": "Feature", 
            "properties": {
                "Address": "Tevet 15, Tel Aviv, Israel"
            }
        }, 
        {
            "geometry": {
                "type": "point", 
                "coordinates": [
                    32.0450578, 
                    34.7507521
                ]
            }, 
            "type": "Feature", 
            "properties": {
                "Address": "HaArmon 8, Tel Aviv, Israel"
            }
        }, 
        {
            "geometry": {
                "type": "point", 
                "coordinates": [
                    32.0357281, 
                    34.7499711
                ]
            }, 
            "type": "Feature", 
            "properties": {
                "Address": "Irit 17, Tel Aviv, Israel"
            }
        }, 
        {
            "geometry": {
                "type": "point", 
                "coordinates": [
                    32.0960586, 
                    34.8000699
                ]
            }, 
            "type": "Feature", 
            "properties": {
                "Address": "Yerushalmi 14, Tel Aviv, Israel"
            }
        }, 
        {
            "geometry": {
                "type": "point", 
                "coordinates": [
                    32.1212659, 
                    34.8405209
                ]
            }, 
            "type": "Feature", 
            "properties": {
                "Address": "Philadelphia 6, Tel Aviv, Israel"
            }
        }, 
        {
            "geometry": {
                "type": "point", 
                "coordinates": [
                    32.1083313, 
                    34.7905628
                ]
            }, 
            "type": "Feature", 
            "properties": {
                "Address": "Yehuda Burla 27, Tel Aviv, Israel"
            }
        }, 
        {
            "geometry": {
                "type": "point", 
                "coordinates": [
                    32.1194401, 
                    34.82284
                ]
            }, 
            "type": "Feature", 
            "properties": {
                "Address": "Lamdan 20, Tel Aviv, Israel"
            }
        }, 
        {
            "geometry": {
                "type": "point", 
                "coordinates": [
                    32.556704, 
                    35.398914
                ]
            }, 
            "type": "Feature", 
            "properties": {
                "Address": "Tel Yosef, Israel"
            }
        }, 
        {
            "geometry": {
                "type": "point", 
                "coordinates": [
                    32.2577207, 
                    34.91933660000001
                ]
            }, 
            "type": "Feature", 
            "properties": {
                "Address": "HaShaked 4, Tel Mond, Israel"
            }
        }, 
        {
            "geometry": {
                "type": "point", 
                "coordinates": [
                    32.2577207, 
                    34.91933660000001
                ]
            }, 
            "type": "Feature", 
            "properties": {
                "Address": "HaShaked 4, Tel Mond, Israel"
            }
        }, 
        {
            "geometry": {
                "type": "point", 
                "coordinates": [
                    32.256608, 
                    34.91846
                ]
            }, 
            "type": "Feature", 
            "properties": {
                "Address": "Tel Mond, Israel"
            }
        }, 
        {
            "geometry": {
                "type": "point", 
                "coordinates": [
                    32.657358, 
                    35.302478
                ]
            }, 
            "type": "Feature", 
            "properties": {
                "Address": "Tel Adashim, Israel"
            }
        }, 
        {
            "geometry": {
                "type": "point", 
                "coordinates": [
                    31.8802223, 
                    35.239359
                ]
            }, 
            "type": "Feature", 
            "properties": {
                "Address": "19 Ahavat Emet, Kokhav Ya'akov"
            }
        }, 
        {
            "geometry": {
                "type": "point", 
                "coordinates": [
                    31.880377, 
                    35.239097
                ]
            }, 
            "type": "Feature", 
            "properties": {
                "Address": "Tel Tsiyon, Kokhav Ya'akov"
            }
        }, 
        {
            "geometry": {
                "type": "point", 
                "coordinates": [
                    31.880377, 
                    35.239097
                ]
            }, 
            "type": "Feature", 
            "properties": {
                "Address": "Tel Tsiyon, Kokhav Ya'akov"
            }
        }, 
        {
            "geometry": {
                "type": "point", 
                "coordinates": [
                    31.253103, 
                    34.858533
                ]
            }, 
            "type": "Feature", 
            "properties": {
                "Address": "901, Tel as-Sabi, Israel"
            }
        }, 
        {
            "geometry": {
                "type": "point", 
                "coordinates": [
                    31.563416, 
                    34.67199799999999
                ]
            }, 
            "type": "Feature", 
            "properties": {
                "Address": "Tlamim, Israel"
            }
        }, 
        {
            "geometry": {
                "type": "point", 
                "coordinates": [
                    32.703801, 
                    35.225489
                ]
            }, 
            "type": "Feature", 
            "properties": {
                "Address": "Timrat, Israel"
            }
        }, 
        {
            "geometry": {
                "type": "point", 
                "coordinates": [
                    31.325391, 
                    34.675289
                ]
            }, 
            "type": "Feature", 
            "properties": {
                "Address": "\u05ea\u05e4\u05e8\u05d7, Tifrah"
            }
        }
    ]
}