{
    "type": "FeatureCollection", 
    "features": [
        {
            "geometry": {
                "type": "Point", 
                "coordinates": [
                    34.7741299, 
                    32.0676064
                ]
            }, 
            "type": "Feature", 
            "properties": {
                "Address": "Balfour 14, Tel Aviv, Israel"
            }
        }, 
        {
            "geometry": {
                "type": "Point", 
                "coordinates": [
                    34.792816, 
                    32.0548879
                ]
            }, 
            "type": "Feature", 
            "properties": {
                "Address": "Davidka 18, Tel Aviv, Israel"
            }
        }, 
        {
            "geometry": {
                "type": "Point", 
                "coordinates": [
                    34.7736066, 
                    32.0720528
                ]
            }, 
            "type": "Feature", 
            "properties": {
                "Address": "King George 33, Tel Aviv, Israel"
            }
        }, 
        {
            "geometry": {
                "type": "Point", 
                "coordinates": [
                    34.7815735, 
                    32.0568502
                ]
            }, 
            "type": "Feature", 
            "properties": {
                "Address": "Rishon LeTsiyon 3, Tel Aviv, Israel"
            }
        }, 
        {
            "geometry": {
                "type": "Point", 
                "coordinates": [
                    34.7742247, 
                    32.0427402
                ]
            }, 
            "type": "Feature", 
            "properties": {
                "Address": "HaKeshet 8, Tel Aviv, Israel"
            }
        }, 
        {
            "geometry": {
                "type": "Point", 
                "coordinates": [
                    34.8088532, 
                    32.0451887
                ]
            }, 
            "type": "Feature", 
            "properties": {
                "Address": "Derech Haim Barlev 195, Tel Aviv, Israel"
            }
        }, 
        {
            "geometry": {
                "type": "Point", 
                "coordinates": [
                    34.7971783, 
                    32.0686339
                ]
            }, 
            "type": "Feature", 
            "properties": {
                "Address": "Shulman 3, Tel Aviv, Israel"
            }
        }, 
        {
            "geometry": {
                "type": "Point", 
                "coordinates": [
                    34.7907562, 
                    32.046408
                ]
            }, 
            "type": "Feature", 
            "properties": {
                "Address": "Tevet 15, Tel Aviv, Israel"
            }
        }, 
        {
            "geometry": {
                "type": "Point", 
                "coordinates": [
                    34.7507521, 
                    32.0450578
                ]
            }, 
            "type": "Feature", 
            "properties": {
                "Address": "HaArmon 8, Tel Aviv, Israel"
            }
        }, 
        {
            "geometry": {
                "type": "Point", 
                "coordinates": [
                    34.7499711, 
                    32.0357281
                ]
            }, 
            "type": "Feature", 
            "properties": {
                "Address": "Irit 17, Tel Aviv, Israel"
            }
        }, 
        {
            "geometry": {
                "type": "Point", 
                "coordinates": [
                    34.8000699, 
                    32.0960586
                ]
            }, 
            "type": "Feature", 
            "properties": {
                "Address": "Yerushalmi 14, Tel Aviv, Israel"
            }
        }, 
        {
            "geometry": {
                "type": "Point", 
                "coordinates": [
                    34.8405209, 
                    32.1212659
                ]
            }, 
            "type": "Feature", 
            "properties": {
                "Address": "Philadelphia 6, Tel Aviv, Israel"
            }
        }, 
        {
            "geometry": {
                "type": "Point", 
                "coordinates": [
                    34.7905628, 
                    32.1083313
                ]
            }, 
            "type": "Feature", 
            "properties": {
                "Address": "Yehuda Burla 27, Tel Aviv, Israel"
            }
        }, 
        {
            "geometry": {
                "type": "Point", 
                "coordinates": [
                    34.82284, 
                    32.1194401
                ]
            }, 
            "type": "Feature", 
            "properties": {
                "Address": "Lamdan 20, Tel Aviv, Israel"
            }
        }, 
        {
            "geometry": {
                "type": "Point", 
                "coordinates": [
                    35.398914, 
                    32.556704
                ]
            }, 
            "type": "Feature", 
            "properties": {
                "Address": "Tel Yosef, Israel"
            }
        }, 
        {
            "geometry": {
                "type": "Point", 
                "coordinates": [
                    34.91933660000001, 
                    32.2577207
                ]
            }, 
            "type": "Feature", 
            "properties": {
                "Address": "HaShaked 4, Tel Mond, Israel"
            }
        }, 
        {
            "geometry": {
                "type": "Point", 
                "coordinates": [
                    34.91933660000001, 
                    32.2577207
                ]
            }, 
            "type": "Feature", 
            "properties": {
                "Address": "HaShaked 4, Tel Mond, Israel"
            }
        }, 
        {
            "geometry": {
                "type": "Point", 
                "coordinates": [
                    34.91846, 
                    32.256608
                ]
            }, 
            "type": "Feature", 
            "properties": {
                "Address": "Tel Mond, Israel"
            }
        }, 
        {
            "geometry": {
                "type": "Point", 
                "coordinates": [
                    35.302478, 
                    32.657358
                ]
            }, 
            "type": "Feature", 
            "properties": {
                "Address": "Tel Adashim, Israel"
            }
        }, 
        {
            "geometry": {
                "type": "Point", 
                "coordinates": [
                    35.239359, 
                    31.8802223
                ]
            }, 
            "type": "Feature", 
            "properties": {
                "Address": "19 Ahavat Emet, Kokhav Ya'akov"
            }
        }, 
        {
            "geometry": {
                "type": "Point", 
                "coordinates": [
                    35.239097, 
                    31.880377
                ]
            }, 
            "type": "Feature", 
            "properties": {
                "Address": "Tel Tsiyon, Kokhav Ya'akov"
            }
        }, 
        {
            "geometry": {
                "type": "Point", 
                "coordinates": [
                    35.239097, 
                    31.880377
                ]
            }, 
            "type": "Feature", 
            "properties": {
                "Address": "Tel Tsiyon, Kokhav Ya'akov"
            }
        }, 
        {
            "geometry": {
                "type": "Point", 
                "coordinates": [
                    34.858533, 
                    31.253103
                ]
            }, 
            "type": "Feature", 
            "properties": {
                "Address": "901, Tel as-Sabi, Israel"
            }
        }, 
        {
            "geometry": {
                "type": "Point", 
                "coordinates": [
                    34.67199799999999, 
                    31.563416
                ]
            }, 
            "type": "Feature", 
            "properties": {
                "Address": "Tlamim, Israel"
            }
        }, 
        {
            "geometry": {
                "type": "Point", 
                "coordinates": [
                    35.225489, 
                    32.703801
                ]
            }, 
            "type": "Feature", 
            "properties": {
                "Address": "Timrat, Israel"
            }
        }, 
        {
            "geometry": {
                "type": "Point", 
                "coordinates": [
                    34.675289, 
                    31.325391
                ]
            }, 
            "type": "Feature", 
            "properties": {
                "Address": "\u05ea\u05e4\u05e8\u05d7, Tifrah"
            }
        }
    ]
}